[
  {
    "id": "0727",
    "status": "BAD",
    "district": "도봉구",
    "label": "국민은행 앞",
    "road": "노해로 383",
    "cur_lat": 37.652549666,
    "cur_lon": 127.050728941,
    "dist_m": 9616.8,
    "kakao_name": "국민생선",
    "kakao_lat": 37.7390332184496,
    "kakao_lon": 127.051515267256
  },
  {
    "id": "1162",
    "status": "BAD",
    "district": "도봉구",
    "label": "국민은행 앞",
    "road": "해등로 218",
    "cur_lat": 37.658157324,
    "cur_lon": 127.03251905,
    "dist_m": 9147.0,
    "kakao_name": "국민생선",
    "kakao_lat": 37.7390332184496,
    "kakao_lon": 127.051515267256
  },
  {
    "id": "1606",
    "status": "BAD",
    "district": "강북구",
    "label": "도로변",
    "road": "삼각산로 16",
    "cur_lat": 37.638410446,
    "cur_lon": 127.006489815,
    "dist_m": 8319.5,
    "kakao_name": "일신아파트 앞 노상 공영주차장 - 가로등형 전기차충전소",
    "kakao_lat": 37.586480350097005,
    "kakao_lon": 127.07448425052182
  },
  {
    "id": "1415",
    "status": "BAD",
    "district": "강남구",
    "label": "강남에스엠여성의원",
    "road": "강남대로 506",
    "cur_lat": 37.507443495,
    "cur_lon": 127.02349584,
    "dist_m": 8105.0,
    "kakao_name": "포웰의원",
    "kakao_lat": 37.515350241262674,
    "kakao_lon": 127.11484338602781
  },
  {
    "id": "1490",
    "status": "BAD",
    "district": "강북구",
    "label": "도로변",
    "road": "삼각산로 115",
    "cur_lat": 37.640937919,
    "cur_lon": 127.01711655,
    "dist_m": 7886.8,
    "kakao_name": "일신아파트 앞 노상 공영주차장 - 가로등형 전기차충전소",
    "kakao_lat": 37.586480350097005,
    "kakao_lon": 127.07448425052182
  },
  {
    "id": "1553",
    "status": "BAD",
    "district": "강북구",
    "label": "도로변",
    "road": "인수봉로 198",
    "cur_lat": 37.637294932,
    "cur_lon": 127.013229757,
    "dist_m": 7812.7,
    "kakao_name": "일신아파트 앞 노상 공영주차장 - 가로등형 전기차충전소",
    "kakao_lat": 37.586480350097005,
    "kakao_lon": 127.07448425052182
  },
  {
    "id": "1430",
    "status": "BAD",
    "district": "도봉구",
    "label": "우성2차아파트 201동 앞 4거리",
    "road": "해등로 305",
    "cur_lat": 37.657261326,
    "cur_lon": 127.022678769,
    "dist_m": 7469.6,
    "kakao_name": "회룡사입구사거리",
    "kakao_lat": 37.7222971528822,
    "kakao_lon": 127.043932440774
  },
  {
    "id": "1410",
    "status": "BAD",
    "district": "강북구",
    "label": "도로변",
    "road": "도봉로 317",
    "cur_lat": 37.636829971,
    "cur_lon": 127.023908329,
    "dist_m": 7154.8,
    "kakao_name": "일신아파트 앞 노상 공영주차장 - 가로등형 전기차충전소",
    "kakao_lat": 37.586480350097005,
    "kakao_lon": 127.07448425052182
  },
  {
    "id": "1755",
    "status": "BAD",
    "district": "동작구",
    "label": "IBK기업은행 앞",
    "road": "동작대로 27",
    "cur_lat": 37.478923224,
    "cur_lon": 126.981245785,
    "dist_m": 6724.5,
    "kakao_name": "IBK기업은행365 성원상떼빌상가앞",
    "kakao_lat": 37.4875562815532,
    "kakao_lon": 126.905816507322
  },
  {
    "id": "1755",
    "status": "BAD",
    "district": "동작구",
    "label": "기업은행 앞",
    "road": "동작대로 27",
    "cur_lat": 37.478923224,
    "cur_lon": 126.981245785,
    "dist_m": 6724.5,
    "kakao_name": "IBK기업은행365 성원상떼빌상가앞",
    "kakao_lat": 37.4875562815532,
    "kakao_lon": 126.905816507322
  },
  {
    "id": "0089",
    "status": "BAD",
    "district": "송파구",
    "label": "택시승강장",
    "road": "올림픽로 340",
    "cur_lat": 37.515585429,
    "cur_lon": 127.108010183,
    "dist_m": 6681.7,
    "kakao_name": "택시승강장",
    "kakao_lat": 37.5564829727139,
    "kakao_lon": 127.163528655223
  },
  {
    "id": "1111",
    "status": "BAD",
    "district": "강북구",
    "label": "도로변",
    "road": "덕릉로 186",
    "cur_lat": 37.635457031,
    "cur_lon": 127.034668181,
    "dist_m": 6477.6,
    "kakao_name": "일신아파트 앞 노상 공영주차장 - 가로등형 전기차충전소",
    "kakao_lat": 37.586480350097005,
    "kakao_lon": 127.07448425052182
  },
  {
    "id": "0667",
    "status": "BAD",
    "district": "강남구",
    "label": "BK타워",
    "road": "삼성로 547",
    "cur_lat": 37.510371652,
    "cur_lon": 127.054383446,
    "dist_m": 6109.5,
    "kakao_name": "BK타워",
    "kakao_lat": 37.485547287681115,
    "kakao_lon": 127.11616587022081
  },
  {
    "id": "0859",
    "status": "BAD",
    "district": "강남구",
    "label": "라마다호텔",
    "road": "봉은사로 410",
    "cur_lat": 37.510348919,
    "cur_lon": 127.045278284,
    "dist_m": 6103.3,
    "kakao_name": "라마다골프앤드호텔",
    "kakao_lat": 37.5161213268675,
    "kakao_lon": 127.114092360311
  },
  {
    "id": "2459",
    "status": "BAD",
    "district": "구로구",
    "label": "한잔해호프",
    "road": "우마길 16-21",
    "cur_lat": 37.481052542,
    "cur_lon": 126.887863103,
    "dist_m": 6069.0,
    "kakao_name": "끼리끼리한잔해",
    "kakao_lat": 37.5209996740525,
    "kakao_lon": 126.840983167616
  },
  {
    "id": "1114",
    "status": "BAD",
    "district": "강남구",
    "label": "배민라이더스",
    "road": "논현로 545",
    "cur_lat": 37.504905737,
    "cur_lon": 127.034606551,
    "dist_m": 6049.9,
    "kakao_name": "우아한청년들",
    "kakao_lat": 37.5150016251831,
    "kakao_lon": 127.102004616951
  },
  {
    "id": "0770",
    "status": "BAD",
    "district": "강남구",
    "label": "산돈까스",
    "road": "삼성로 758",
    "cur_lat": 37.522614031,
    "cur_lon": 127.048544949,
    "dist_m": 6007.9,
    "kakao_name": "산낙지갯마을",
    "kakao_lat": 37.4850883962454,
    "kakao_lon": 127.097545271444
  },
  {
    "id": "0202",
    "status": "BAD",
    "district": "광진구",
    "label": "21세기약국",
    "road": "용마산로 49",
    "cur_lat": 37.557978039,
    "cur_lon": 127.08759916,
    "dist_m": 5987.5,
    "kakao_name": "21세기메디칼약국",
    "kakao_lat": 37.55436368120581,
    "kakao_lon": 127.01982881698724
  },
  {
    "id": "1135",
    "status": "BAD",
    "district": "강남구",
    "label": "차병원연구소",
    "road": "논현로 569",
    "cur_lat": 37.506927186,
    "cur_lon": 127.033699356,
    "dist_m": 5965.3,
    "kakao_name": "잠실차병원 체외배양연구센터",
    "kakao_lat": 37.5144081086556,
    "kakao_lon": 127.100669095666
  },
  {
    "id": "1030",
    "status": "BAD",
    "district": "강남구",
    "label": "자미온",
    "road": "언주로 565",
    "cur_lat": 37.508327894,
    "cur_lon": 127.038364085,
    "dist_m": 5906.8,
    "kakao_name": "자미온청실홍실한복",
    "kakao_lat": 37.5357010612649,
    "kakao_lon": 127.095764656407
  },
  {
    "id": "1140",
    "status": "BAD",
    "district": "강남구",
    "label": "한성모터스",
    "road": "도산대로 239",
    "cur_lat": 37.521752236,
    "cur_lon": 127.03325042,
    "dist_m": 5239.8,
    "kakao_name": "메르세데스벤츠 방배전시장(한성자동차)",
    "kakao_lat": 37.48616829013304,
    "kakao_lon": 126.99431037957834
  },
  {
    "id": "2608",
    "status": "BAD",
    "district": "강서구",
    "label": "국민은행방화동지점",
    "road": "양천로66",
    "cur_lat": 37.554343928,
    "cur_lon": 126.865366931,
    "dist_m": 5193.8,
    "kakao_name": "KB국민은행 방화동지점 주차장",
    "kakao_lat": 37.57287864114468,
    "kakao_lon": 126.81127915586117
  },
  {
    "id": "2415",
    "status": "BAD",
    "district": "구로구",
    "label": "횡단보도",
    "road": "도림로85",
    "cur_lat": 37.490408699,
    "cur_lon": 126.892610065,
    "dist_m": 5180.5,
    "kakao_name": "경인철도횡단보도육교",
    "kakao_lat": 37.49304991056296,
    "kakao_lon": 126.83398631160702
  },
  {
    "id": "2656",
    "status": "BAD",
    "district": "구로구",
    "label": "도로변",
    "road": "개봉로22",
    "cur_lat": 37.487507423,
    "cur_lon": 126.856557986,
    "dist_m": 4961.5,
    "kakao_name": "SK리더스뷰도로변 노상공영주차장",
    "kakao_lat": 37.51688189103531,
    "kakao_lon": 126.89889435069945
  },
  {
    "id": "2654",
    "status": "BAD",
    "district": "구로구",
    "label": "도로변",
    "road": "개봉로10",
    "cur_lat": 37.487784343,
    "cur_lon": 126.857123129,
    "dist_m": 4903.7,
    "kakao_name": "SK리더스뷰도로변 노상공영주차장",
    "kakao_lat": 37.51688189103531,
    "kakao_lon": 126.89889435069945
  },
  {
    "id": "2658",
    "status": "BAD",
    "district": "구로구",
    "label": "도로변",
    "road": "개봉로34",
    "cur_lat": 37.488603267,
    "cur_lon": 126.856444519,
    "dist_m": 4889.8,
    "kakao_name": "SK리더스뷰도로변 노상공영주차장",
    "kakao_lat": 37.51688189103531,
    "kakao_lon": 126.89889435069945
  },
  {
    "id": "2714",
    "status": "BAD",
    "district": "구로구",
    "label": "도로변",
    "road": "고척로 126",
    "cur_lat": 37.501962297,
    "cur_lon": 126.847909659,
    "dist_m": 4793.4,
    "kakao_name": "SK리더스뷰도로변 노상공영주차장",
    "kakao_lat": 37.51688189103531,
    "kakao_lon": 126.89889435069945
  },
  {
    "id": "1769",
    "status": "BAD",
    "district": "동작구",
    "label": "새마을금고 앞",
    "road": "남부순환로 2069",
    "cur_lat": 37.476934714,
    "cur_lon": 126.978777867,
    "dist_m": 4746.7,
    "kakao_name": "상도2동 새마을금고앞 거주자우선주차장",
    "kakao_lat": 37.5047723588898,
    "kakao_lon": 126.93799127889
  },
  {
    "id": "1094",
    "status": "BAD",
    "district": "강남구",
    "label": "대영부동산",
    "road": "압구정로 310",
    "cur_lat": 37.528784125,
    "cur_lon": 127.035292546,
    "dist_m": 4562.1,
    "kakao_name": "대영공인중개사사무소",
    "kakao_lat": 37.4930455443174,
    "kakao_lon": 127.060696353476
  },
  {
    "id": "2649",
    "status": "BAD",
    "district": "구로구",
    "label": "도로변",
    "road": "남부순환로97길",
    "cur_lat": 37.494257232,
    "cur_lon": 126.858377328,
    "dist_m": 4370.7,
    "kakao_name": "SK리더스뷰도로변 노상공영주차장",
    "kakao_lat": 37.51688189103531,
    "kakao_lon": 126.89889435069945
  },
  {
    "id": "0769",
    "status": "BAD",
    "district": "강남구",
    "label": "소노시즌",
    "road": "삼성로 737",
    "cur_lat": 37.521146656,
    "cur_lon": 127.04865736,
    "dist_m": 4362.1,
    "kakao_name": "소노시즌 서울송파점",
    "kakao_lat": 37.503310648126,
    "kakao_lon": 127.092705907017
  },
  {
    "id": "1825",
    "status": "BAD",
    "district": "종로구",
    "label": "도로변",
    "road": "필운대로 9-2",
    "cur_lat": 37.577116081,
    "cur_lon": 126.969067244,
    "dist_m": 4102.0,
    "kakao_name": "위아전사",
    "kakao_lat": 37.5609790624249,
    "kakao_lon": 127.010919772876
  },
  {
    "id": "0922",
    "status": "BAD",
    "district": "강남구",
    "label": "㈜나래",
    "road": "선릉로 646",
    "cur_lat": 37.514177067,
    "cur_lon": 127.042705895,
    "dist_m": 4081.8,
    "kakao_name": "나래인터텍스",
    "kakao_lat": 37.4777197844163,
    "kakao_lon": 127.048107603901
  },
  {
    "id": "1988",
    "status": "BAD",
    "district": "동작구",
    "label": "기업은행 앞",
    "road": "장승배기로 128",
    "cur_lat": 37.508861937,
    "cur_lon": 126.940570995,
    "dist_m": 3874.7,
    "kakao_name": "IBK기업은행365 성원상떼빌상가앞",
    "kakao_lat": 37.4875562815532,
    "kakao_lon": 126.905816507322
  },
  {
    "id": "2641",
    "status": "BAD",
    "district": "구로구",
    "label": "도로변",
    "road": "고척로 235",
    "cur_lat": 37.506543118,
    "cur_lon": 126.859116282,
    "dist_m": 3692.1,
    "kakao_name": "SK리더스뷰도로변 노상공영주차장",
    "kakao_lat": 37.51688189103531,
    "kakao_lon": 126.89889435069945
  },
  {
    "id": "0697",
    "status": "BAD",
    "district": "강남구",
    "label": "프리마호텔",
    "road": "도산대로 536",
    "cur_lat": 37.524303272,
    "cur_lon": 127.052126409,
    "dist_m": 3673.2,
    "kakao_name": "더프리마호텔 동서울(2026년 하반기 예정)",
    "kakao_lat": 37.5341652371713,
    "kakao_lon": 127.091881951039
  },
  {
    "id": "2483",
    "status": "BAD",
    "district": "구로구",
    "label": "도로변",
    "road": "구로동로 79-1",
    "cur_lat": 37.485890156,
    "cur_lon": 126.885440137,
    "dist_m": 3644.8,
    "kakao_name": "SK리더스뷰도로변 노상공영주차장",
    "kakao_lat": 37.51688189103531,
    "kakao_lon": 126.89889435069945
  },
  {
    "id": "2391",
    "status": "BAD",
    "district": "구로구",
    "label": "도로변",
    "road": "디지털로34길 55",
    "cur_lat": 37.484345905,
    "cur_lon": 126.899285087,
    "dist_m": 3618.0,
    "kakao_name": "SK리더스뷰도로변 노상공영주차장",
    "kakao_lat": 37.51688189103531,
    "kakao_lon": 126.89889435069945
  },
  {
    "id": "1994",
    "status": "BAD",
    "district": "동작구",
    "label": "나이스가이 헤어숍",
    "road": "장승배기로 102",
    "cur_lat": 37.506732902,
    "cur_lon": 126.939984539,
    "dist_m": 3609.7,
    "kakao_name": "나이스가이 프리미엄 남성역점",
    "kakao_lat": 37.4851376034452,
    "kakao_lon": 126.970534684099
  },
  {
    "id": "1870",
    "status": "BAD",
    "district": "종로구",
    "label": "상가대로변",
    "road": "통일로16길 3",
    "cur_lat": 37.575616061,
    "cur_lon": 126.957089037,
    "dist_m": 3525.0,
    "kakao_name": "식물놀이터",
    "kakao_lat": 37.59246145519794,
    "kakao_lon": 126.92320104219108
  },
  {
    "id": "1019",
    "status": "BAD",
    "district": "강남구",
    "label": "삼성전자서비스센터",
    "road": "도산대로 336",
    "cur_lat": 37.522666916,
    "cur_lon": 127.038896456,
    "dist_m": 3510.6,
    "kakao_name": "삼성전자서비스 대치휴대폰/PC센터",
    "kakao_lat": 37.50033126500859,
    "kakao_lon": 127.06702624891349
  },
  {
    "id": "0559",
    "status": "BAD",
    "district": "강남구",
    "label": "K타워",
    "road": "테헤란로 513",
    "cur_lat": 37.508003109,
    "cur_lon": 127.058887174,
    "dist_m": 3458.3,
    "kakao_name": "K타워",
    "kakao_lat": 37.5173070396132,
    "kakao_lon": 127.021473890825
  },
  {
    "id": "1830",
    "status": "BAD",
    "district": "동작구",
    "label": "새마을금고 앞",
    "road": "사당로 172",
    "cur_lat": 37.486493049,
    "cur_lon": 126.967900377,
    "dist_m": 3330.7,
    "kakao_name": "상도2동 새마을금고앞 거주자우선주차장",
    "kakao_lat": 37.5047723588898,
    "kakao_lon": 126.93799127889
  },
  {
    "id": "2423",
    "status": "BAD",
    "district": "구로구",
    "label": "도로변",
    "road": "디지털로31길 90",
    "cur_lat": 37.487800145,
    "cur_lon": 126.891162163,
    "dist_m": 3304.9,
    "kakao_name": "SK리더스뷰도로변 노상공영주차장",
    "kakao_lat": 37.51688189103531,
    "kakao_lon": 126.89889435069945
  },
  {
    "id": "0719",
    "status": "BAD",
    "district": "강남구",
    "label": "노브랜드",
    "road": "삼성로 633",
    "cur_lat": 37.516290924,
    "cur_lon": 127.05110709,
    "dist_m": 3234.3,
    "kakao_name": "노브랜드 강남역삼점",
    "kakao_lat": 37.49202454273762,
    "kakao_lon": 127.03089279874023
  },
  {
    "id": "2524",
    "status": "BAD",
    "district": "구로구",
    "label": "도로변",
    "road": "가마산로 9길 4-4",
    "cur_lat": 37.491531264,
    "cur_lon": 126.881635092,
    "dist_m": 3203.7,
    "kakao_name": "SK리더스뷰도로변 노상공영주차장",
    "kakao_lat": 37.51688189103531,
    "kakao_lon": 126.89889435069945
  },
  {
    "id": "0591",
    "status": "BAD",
    "district": "강남구",
    "label": "도화빌딩",
    "road": "삼성로 438",
    "cur_lat": 37.506101247,
    "cur_lon": 127.057535625,
    "dist_m": 3093.0,
    "kakao_name": "도화빌딩",
    "kakao_lat": 37.5279786220598,
    "kakao_lon": 127.035876370525
  },
  {
    "id": "2501",
    "status": "BAD",
    "district": "구로구",
    "label": "도로변",
    "road": "구로동로153",
    "cur_lat": 37.492360505,
    "cur_lon": 126.883413669,
    "dist_m": 3049.5,
    "kakao_name": "SK리더스뷰도로변 노상공영주차장",
    "kakao_lat": 37.51688189103531,
    "kakao_lon": 126.89889435069945
  },
  {
    "id": "2497",
    "status": "BAD",
    "district": "구로구",
    "label": "도로변",
    "road": "가마산로203",
    "cur_lat": 37.493415074,
    "cur_lon": 126.883756608,
    "dist_m": 2931.2,
    "kakao_name": "SK리더스뷰도로변 노상공영주차장",
    "kakao_lat": 37.51688189103531,
    "kakao_lon": 126.89889435069945
  },
  {
    "id": "2507",
    "status": "BAD",
    "district": "구로구",
    "label": "도로변",
    "road": "구로동로173",
    "cur_lat": 37.49394292,
    "cur_lon": 126.882905395,
    "dist_m": 2914.7,
    "kakao_name": "SK리더스뷰도로변 노상공영주차장",
    "kakao_lat": 37.51688189103531,
    "kakao_lon": 126.89889435069945
  },
  {
    "id": "2112",
    "status": "BAD",
    "district": "동작구",
    "label": "왕세숫대야냉면",
    "road": "보라매로 104",
    "cur_lat": 37.498399434,
    "cur_lon": 126.928306229,
    "dist_m": 2899.3,
    "kakao_name": "왕세숫대야냉면왕돈까스 서울대점",
    "kakao_lat": 37.47878757923355,
    "kakao_lon": 126.94996068716281
  },
  {
    "id": "2485",
    "status": "BAD",
    "district": "구로구",
    "label": "도로변",
    "road": "가마산로218",
    "cur_lat": 37.493218597,
    "cur_lon": 126.885142428,
    "dist_m": 2897.4,
    "kakao_name": "SK리더스뷰도로변 노상공영주차장",
    "kakao_lat": 37.51688189103531,
    "kakao_lon": 126.89889435069945
  },
  {
    "id": "0619",
    "status": "BAD",
    "district": "강남구",
    "label": "공영주차장입구",
    "road": "도곡로 421",
    "cur_lat": 37.497679673,
    "cur_lon": 127.056450586,
    "dist_m": 2875.8,
    "kakao_name": "논현초교 공영주차장입구",
    "kakao_lat": 37.5077445802965,
    "kakao_lon": 127.026420464269
  },
  {
    "id": "1021",
    "status": "BAD",
    "district": "강남구",
    "label": "국민은행",
    "road": "선릉로 801",
    "cur_lat": 37.523570795,
    "cur_lon": 127.03883425,
    "dist_m": 2721.0,
    "kakao_name": "KB국민은행 강남역종합금융센터",
    "kakao_lat": 37.49969991209963,
    "kakao_lon": 127.03204494644099
  },
  {
    "id": "2462",
    "status": "BAD",
    "district": "구로구",
    "label": "도로변",
    "road": "가마산로242",
    "cur_lat": 37.494348178,
    "cur_lon": 126.887649307,
    "dist_m": 2694.8,
    "kakao_name": "SK리더스뷰도로변 노상공영주차장",
    "kakao_lat": 37.51688189103531,
    "kakao_lon": 126.89889435069945
  },
  {
    "id": "2442",
    "status": "BAD",
    "district": "구로구",
    "label": "도로변",
    "road": "가마산로250",
    "cur_lat": 37.494805105,
    "cur_lon": 126.888676958,
    "dist_m": 2615.0,
    "kakao_name": "SK리더스뷰도로변 노상공영주차장",
    "kakao_lat": 37.51688189103531,
    "kakao_lon": 126.89889435069945
  },
  {
    "id": "0605",
    "status": "BAD",
    "district": "강남구",
    "label": "명인등심",
    "road": "테헤란로87길 30",
    "cur_lat": 37.5114486552005,
    "cur_lon": 127.05686585670495,
    "dist_m": 2608.9,
    "kakao_name": "명인등심 압구정본점",
    "kakao_lat": 37.52057411854473,
    "kakao_lon": 127.0296149899948
  },
  {
    "id": "1096",
    "status": "BAD",
    "district": "강남구",
    "label": "두산타워",
    "road": "언주로 726",
    "cur_lat": 37.519381899,
    "cur_lon": 127.035197464,
    "dist_m": 2605.7,
    "kakao_name": "오피스그룹 부동산중개",
    "kakao_lat": 37.4967123692127,
    "kakao_lon": 127.027714789069
  },
  {
    "id": "2509",
    "status": "BAD",
    "district": "구로구",
    "label": "도로변",
    "road": "구로동로216",
    "cur_lat": 37.497848117,
    "cur_lon": 126.882679414,
    "dist_m": 2554.4,
    "kakao_name": "SK리더스뷰도로변 노상공영주차장",
    "kakao_lat": 37.51688189103531,
    "kakao_lon": 126.89889435069945
  },
  {
    "id": "2521",
    "status": "BAD",
    "district": "구로구",
    "label": "도로변",
    "road": "구로동로 219",
    "cur_lat": 37.49834854,
    "cur_lon": 126.882122088,
    "dist_m": 2536.9,
    "kakao_name": "SK리더스뷰도로변 노상공영주차장",
    "kakao_lat": 37.51688189103531,
    "kakao_lon": 126.89889435069945
  },
  {
    "id": "1690",
    "status": "BAD",
    "district": "종로구",
    "label": "올리브영 앞",
    "road": "종로 104",
    "cur_lat": 37.569996695,
    "cur_lon": 126.989082771,
    "dist_m": 2417.0,
    "kakao_name": "올리브영 동묘앞역점",
    "kakao_lat": 37.57291574226731,
    "kakao_lon": 127.016258885458
  },
  {
    "id": "2512",
    "status": "BAD",
    "district": "구로구",
    "label": "도로변",
    "road": "구로동로238-1",
    "cur_lat": 37.499849486,
    "cur_lon": 126.882616523,
    "dist_m": 2376.7,
    "kakao_name": "SK리더스뷰도로변 노상공영주차장",
    "kakao_lat": 37.51688189103531,
    "kakao_lon": 126.89889435069945
  },
  {
    "id": "1085",
    "status": "BAD",
    "district": "강남구",
    "label": "바나프레소",
    "road": "언주로 702",
    "cur_lat": 37.515820925,
    "cur_lon": 127.035752254,
    "dist_m": 2355.8,
    "kakao_name": "바나프레소 강남점",
    "kakao_lat": 37.495088131532796,
    "kakao_lon": 127.03025627694441
  },
  {
    "id": "1145",
    "status": "BAD",
    "district": "강남구",
    "label": "라움",
    "road": "압구정로 230",
    "cur_lat": 37.528745963,
    "cur_lon": 127.033198023,
    "dist_m": 2334.8,
    "kakao_name": "라움아트센터",
    "kakao_lat": 37.508416575778966,
    "kakao_lon": 127.03982332513212
  },
  {
    "id": "1277",
    "status": "BAD",
    "district": "강남구",
    "label": "뉴발란스",
    "road": "강남대로 412",
    "cur_lat": 37.49949322,
    "cur_lon": 127.027250224,
    "dist_m": 2331.1,
    "kakao_name": "뉴발란스 롯데백화점강남점",
    "kakao_lat": 37.4968675043075,
    "kakao_lon": 127.053466537515
  },
  {
    "id": "2526",
    "status": "BAD",
    "district": "구로구",
    "label": "도로변",
    "road": "경인로572",
    "cur_lat": 37.503343579,
    "cur_lon": 126.881097036,
    "dist_m": 2175.0,
    "kakao_name": "SK리더스뷰도로변 노상공영주차장",
    "kakao_lat": 37.51688189103531,
    "kakao_lon": 126.89889435069945
  },
  {
    "id": "1112",
    "status": "BAD",
    "district": "도봉구",
    "label": "방학2동 공영주차장 앞",
    "road": "방학동 600-13",
    "cur_lat": 37.6672551909763,
    "cur_lon": 127.03466159808495,
    "dist_m": 2162.1,
    "kakao_name": "노원세무서앞 공영주차장",
    "kakao_lat": 37.653008087405496,
    "kakao_lon": 127.05137645655967
  },
  {
    "id": "1677",
    "status": "BAD",
    "district": "종로구",
    "label": "국수집 앞",
    "road": "돈화문로 35",
    "cur_lat": 37.571596433,
    "cur_lon": 126.99164615,
    "dist_m": 2142.1,
    "kakao_name": "싸다김밥 동묘앞역점",
    "kakao_lat": 37.572676124660845,
    "kakao_lon": 127.01591357512281
  },
  {
    "id": "0962",
    "status": "BAD",
    "district": "강남구",
    "label": "밀레",
    "road": "도산대로 419",
    "cur_lat": 37.523846347,
    "cur_lon": 127.041648121,
    "dist_m": 2099.9,
    "kakao_name": "밀레코리아",
    "kakao_lat": 37.50592076404788,
    "kakao_lon": 127.03415802416437
  },
  {
    "id": "0090",
    "status": "BAD",
    "district": "송파구",
    "label": "도로변",
    "road": "오금로 95",
    "cur_lat": 37.513786982,
    "cur_lon": 127.107700241,
    "dist_m": 2082.6,
    "kakao_name": "하나투어 세민월드투어여행사",
    "kakao_lat": 37.5120847037359,
    "kakao_lon": 127.084186166564
  },
  {
    "id": "0436",
    "status": "BAD",
    "district": "성북구",
    "label": "석계역 4번 출구",
    "road": "석관동 375-46",
    "cur_lat": 37.61476399853092,
    "cur_lon": 127.06682399993966,
    "dist_m": 2063.9,
    "kakao_name": "북서울꿈의숲 4번출입구",
    "kakao_lat": 37.6230048724882,
    "kakao_lon": 127.045826814797
  },
  {
    "id": "2432",
    "status": "BAD",
    "district": "구로구",
    "label": "도로변",
    "road": "구로중앙로28길66",
    "cur_lat": 37.500088755,
    "cur_lon": 126.889391082,
    "dist_m": 2046.8,
    "kakao_name": "SK리더스뷰도로변 노상공영주차장",
    "kakao_lat": 37.51688189103531,
    "kakao_lon": 126.89889435069945
  },
  {
    "id": "1904",
    "status": "BAD",
    "district": "마포구",
    "label": "공덕역 4번 출구, 택시승강장",
    "road": "마포대로122",
    "cur_lat": 37.545400032,
    "cur_lon": 126.952560198,
    "dist_m": 2009.2,
    "kakao_name": "서울역 택시승강장",
    "kakao_lat": 37.5548836942472,
    "kakao_lon": 126.971959248344
  },
  {
    "id": "1857",
    "status": "BAD",
    "district": "동작구",
    "label": "중대병원 삼거리",
    "road": "흑석로 106-5",
    "cur_lat": 37.507871514,
    "cur_lon": 126.961447323,
    "dist_m": 1974.1,
    "kakao_name": "노량진삼거리",
    "kakao_lat": 37.5134411602122,
    "kakao_lon": 126.94019653686
  },
  {
    "id": "1169",
    "status": "BAD",
    "district": "강남구",
    "label": "학동역 2번출구",
    "road": "학동로 208",
    "cur_lat": 37.514044759,
    "cur_lon": 127.031987062,
    "dist_m": 1871.8,
    "kakao_name": "강남역2번출구약국",
    "kakao_lat": 37.4974510268582,
    "kakao_lon": 127.028420717278
  },
  {
    "id": "0550",
    "status": "BAD",
    "district": "강남구",
    "label": "봉은사역 엘리베이터",
    "road": "영동대로 517",
    "cur_lat": 37.513092783,
    "cur_lon": 127.059775578,
    "dist_m": 1843.6,
    "kakao_name": "한성개발엘리베이터",
    "kakao_lat": 37.5019764097551,
    "kakao_lon": 127.044268967073
  },
  {
    "id": "2382",
    "status": "BAD",
    "district": "금천구",
    "label": "와이즈플레이스 앞 보도",
    "road": "시흥대로 236",
    "cur_lat": 37.454985959,
    "cur_lon": 126.900999352,
    "dist_m": 1842.1,
    "kakao_name": "청사초롱지하보도",
    "kakao_lat": 37.4461120825782,
    "kakao_lon": 126.918620355536
  },
  {
    "id": "2401",
    "status": "BAD",
    "district": "은평구",
    "label": "수색역 앞",
    "road": "수색로 81",
    "cur_lat": 37.58085500125146,
    "cur_lon": 126.89568100044814,
    "dist_m": 1807.1,
    "kakao_name": "G car zone 마포구청 앞(두산위브센티움)",
    "kakao_lat": 37.565659097470345,
    "kakao_lon": 126.90294966596663
  },
  {
    "id": "2853",
    "status": "BAD",
    "district": "구로구",
    "label": "온수역 앞",
    "road": "온수동 119-4",
    "cur_lat": 37.492159240975504,
    "cur_lon": 126.82370470025705,
    "dist_m": 1799.2,
    "kakao_name": "오류동역앞교차로",
    "kakao_lat": 37.4958804105469,
    "kakao_lon": 126.843551416035
  },
  {
    "id": "0635",
    "status": "BAD",
    "district": "강남구",
    "label": "대신증권",
    "road": "영동대로 707",
    "cur_lat": 37.520719001,
    "cur_lon": 127.055931562,
    "dist_m": 1757.2,
    "kakao_name": "대신증권 강남금융센터",
    "kakao_lat": 37.5051445516859,
    "kakao_lon": 127.052558613019
  },
  {
    "id": "1967",
    "status": "BAD",
    "district": "마포구",
    "label": "대흥역 2번 출구 앞(삼성공인중개사 앞)",
    "road": "백범로95",
    "cur_lat": 37.547928381,
    "cur_lon": 126.942334021,
    "dist_m": 1709.8,
    "kakao_name": "리버힐삼성정문앞부동산",
    "kakao_lat": 37.534504689643,
    "kakao_lon": 126.951792584277
  },
  {
    "id": "1730",
    "status": "BAD",
    "district": "중구",
    "label": "세븐일레븐 앞 소공원",
    "road": "명동7길 25",
    "cur_lat": 37.564914201,
    "cur_lon": 126.984192064,
    "dist_m": 1674.3,
    "kakao_name": "쌍림동소공원",
    "kakao_lat": 37.5635131290031,
    "kakao_lon": 127.003105811745
  },
  {
    "id": "0142",
    "status": "BAD",
    "district": "송파구",
    "label": "도로변",
    "road": "백제고분로 284",
    "cur_lat": 37.502269028,
    "cur_lon": 127.097975861,
    "dist_m": 1634.3,
    "kakao_name": "하나투어 세민월드투어여행사",
    "kakao_lat": 37.5120847037359,
    "kakao_lon": 127.084186166564
  },
  {
    "id": "2338",
    "status": "BAD",
    "district": "서대문구",
    "label": "거북골로23",
    "road": "거북골로23",
    "cur_lat": 37.579320959,
    "cur_lon": 126.90660405,
    "dist_m": 1610.2,
    "kakao_name": "써브웨이 명지대점",
    "kakao_lat": 37.5800053944817,
    "kakao_lon": 126.924855390439
  },
  {
    "id": "2424",
    "status": "BAD",
    "district": "금천구",
    "label": "금천롯데타워 앞 보도",
    "road": "벚꽃로 104",
    "cur_lat": 37.464563997,
    "cur_lon": 126.891069596,
    "dist_m": 1599.1,
    "kakao_name": "남부아파트앞보도육교",
    "kakao_lat": 37.47847549816744,
    "kakao_lon": 126.89566293845351
  },
  {
    "id": "2091",
    "status": "BAD",
    "district": "관악구",
    "label": "신림역 1번출구 앞",
    "road": "신림로 330",
    "cur_lat": 37.483851698,
    "cur_lon": 126.930243528,
    "dist_m": 1474.8,
    "kakao_name": "투루카 신대방역 1번출구앞(공영주차장)",
    "kakao_lat": 37.4882341122384,
    "kakao_lon": 126.914467913945
  },
  {
    "id": "2488",
    "status": "BAD",
    "district": "구로구",
    "label": "기업은행 앞",
    "road": "구로동로126-2",
    "cur_lat": 37.489922956,
    "cur_lon": 126.884566237,
    "dist_m": 1382.6,
    "kakao_name": "기업은행 구로동지점 앞 ATM",
    "kakao_lat": 37.48398028321141,
    "kakao_lon": 126.89833041182082
  },
  {
    "id": "2113",
    "status": "BAD",
    "district": "동작구",
    "label": "올리브 영",
    "road": "노량진로 114-5",
    "cur_lat": 37.51241636775875,
    "cur_lon": 126.92828223345332,
    "dist_m": 1364.5,
    "kakao_name": "올리브영 노량진역점",
    "kakao_lat": 37.51398705295346,
    "kakao_lon": 126.94362561794327
  },
  {
    "id": "1794",
    "status": "BAD",
    "district": "종로구",
    "label": "경복궁역 4번출구",
    "road": "사직로 125",
    "cur_lat": 37.576130594,
    "cur_lon": 126.97290994,
    "dist_m": 1300.9,
    "kakao_name": "안국역4번출구 주차장",
    "kakao_lat": 37.57674814641835,
    "kakao_lon": 126.98765153437121
  },
  {
    "id": "0988",
    "status": "BAD",
    "district": "강남구",
    "label": "강남구청역 3번출구",
    "road": "학동로 343",
    "cur_lat": 37.51748074,
    "cur_lon": 127.040619448,
    "dist_m": 1279.1,
    "kakao_name": "압구정3번출구닭꼬치",
    "kakao_lat": 37.5246016966122,
    "kakao_lon": 127.029228557264
  },
  {
    "id": "1461",
    "status": "BAD",
    "district": "강남구",
    "label": "신사역 3번출구",
    "road": "강남대로 606",
    "cur_lat": 37.515830159,
    "cur_lon": 127.020146982,
    "dist_m": 1262.1,
    "kakao_name": "압구정3번출구닭꼬치",
    "kakao_lat": 37.5246016966122,
    "kakao_lon": 127.029228557264
  },
  {
    "id": "1121",
    "status": "BAD",
    "district": "강남구",
    "label": "언주역 5번출구",
    "road": "봉은사로 204",
    "cur_lat": 37.50716999,
    "cur_lon": 127.034472857,
    "dist_m": 1222.4,
    "kakao_name": "선릉역 2호선 5번출구",
    "kakao_lat": 37.5044041103135,
    "kakao_lon": 127.047884956782
  },
  {
    "id": "2020",
    "status": "BAD",
    "district": "서대문구",
    "label": "연세로 6 스킨푸드",
    "road": "연세로 6",
    "cur_lat": 37.556064744,
    "cur_lon": 126.937028067,
    "dist_m": 1200.7,
    "kakao_name": "이니스프리 홍대1호점",
    "kakao_lat": 37.555436131815384,
    "kakao_lon": 126.92343031793239
  },
  {
    "id": "1075",
    "status": "BAD",
    "district": "강남구",
    "label": "역삼역 5번출구",
    "road": "테헤란로 151",
    "cur_lat": 37.500981143,
    "cur_lon": 127.036140715,
    "dist_m": 1103.7,
    "kakao_name": "선릉역 2호선 5번출구",
    "kakao_lat": 37.5044041103135,
    "kakao_lon": 127.047884956782
  },
  {
    "id": "0726",
    "status": "BAD",
    "district": "강남구",
    "label": "청담빌딩",
    "road": "도산대로 524",
    "cur_lat": 37.524291572,
    "cur_lon": 127.050838104,
    "dist_m": 1103.2,
    "kakao_name": "청담빌딩",
    "kakao_lat": 37.5177918865006,
    "kakao_lon": 127.041387051615
  },
  {
    "id": "1185",
    "status": "BAD",
    "district": "강남구",
    "label": "학동역 3번출구",
    "road": "학동로 204",
    "cur_lat": 37.513781525,
    "cur_lon": 127.031195483,
    "dist_m": 1081.3,
    "kakao_name": "신논현역3번출구곳간약국",
    "kakao_lat": 37.50507775762522,
    "kakao_lon": 127.02572963105125
  },
  {
    "id": "1234",
    "status": "BAD",
    "district": "도봉구",
    "label": "쌍문그린스테이트 아파트 앞 사거리",
    "road": "시루봉로 2",
    "cur_lat": 37.651162643,
    "cur_lon": 127.028778079,
    "dist_m": 1047.7,
    "kakao_name": "광산사거리",
    "kakao_lat": 37.64322256272,
    "kakao_lon": 127.022371213557
  },
  {
    "id": "0188",
    "status": "BAD",
    "district": "송파구",
    "label": "도로변",
    "road": "백제고분로 204",
    "cur_lat": 37.503744074,
    "cur_lon": 127.089237881,
    "dist_m": 1028.9,
    "kakao_name": "하나투어 세민월드투어여행사",
    "kakao_lat": 37.5120847037359,
    "kakao_lon": 127.084186166564
  },
  {
    "id": "1760",
    "status": "BAD",
    "district": "종로구",
    "label": "종로분식 앞",
    "road": "종로 30-1",
    "cur_lat": 37.569950649,
    "cur_lon": 126.980782449,
    "dist_m": 1000.5,
    "kakao_name": "학교앞분식",
    "kakao_lat": 37.5688404277937,
    "kakao_lon": 126.96951695851864
  },
  {
    "id": "1874",
    "status": "BAD",
    "district": "관악구",
    "label": "서울대학교 정문",
    "road": "관악로1",
    "cur_lat": 37.460194356,
    "cur_lon": 126.956612128,
    "dist_m": 996.9,
    "kakao_name": "서울대학교 관악캠퍼스 정문",
    "kakao_lat": 37.466352968363864,
    "kakao_lon": 126.9484033871627
  },
  {
    "id": "1193",
    "status": "BAD",
    "district": "강남구",
    "label": "학동역 4번출구",
    "road": "논현로 667",
    "cur_lat": 37.513567443,
    "cur_lon": 127.030520862,
    "dist_m": 917.6,
    "kakao_name": "LG유플러스 반포동 논현역4번출구점",
    "kakao_lat": 37.508712244079625,
    "kakao_lon": 127.02210932807267
  },
  {
    "id": "2855",
    "status": "BAD",
    "district": "구로구",
    "label": "기업은행 앞 횡단보도",
    "road": "부일로869",
    "cur_lat": 37.492949542,
    "cur_lon": 126.823654624,
    "dist_m": 911.6,
    "kakao_name": "경인철도횡단보도육교",
    "kakao_lat": 37.49304991056296,
    "kakao_lon": 126.83398631160702
  },
  {
    "id": "1132",
    "status": "BAD",
    "district": "강남구",
    "label": "언주역 3번출구",
    "road": "논현로 608",
    "cur_lat": 37.508069136,
    "cur_lon": 127.033906887,
    "dist_m": 794.3,
    "kakao_name": "신논현역3번출구곳간약국",
    "kakao_lat": 37.50507775762522,
    "kakao_lon": 127.02572963105125
  },
  {
    "id": "2461",
    "status": "BAD",
    "district": "구로구",
    "label": "황제호프",
    "road": "우마길 16-24",
    "cur_lat": 37.481180874,
    "cur_lon": 126.887774032,
    "dist_m": 789.1,
    "kakao_name": "황제호프",
    "kakao_lat": 37.4877526068778,
    "kakao_lon": 126.884398331871
  },
  {
    "id": "0611",
    "status": "BAD",
    "district": "강남구",
    "label": "청담역 2번출구",
    "road": "영동대로 645",
    "cur_lat": 37.51941691,
    "cur_lon": 127.056757421,
    "dist_m": 751.1,
    "kakao_name": "삼성중앙역 9호선 2번출구",
    "kakao_lat": 37.51337595648884,
    "kakao_lon": 127.05294669584839
  },
  {
    "id": "0799",
    "status": "BAD",
    "district": "강남구",
    "label": "선릉공원",
    "road": "선릉로100길 1",
    "cur_lat": 37.507367676,
    "cur_lon": 127.047166015,
    "dist_m": 723.1,
    "kakao_name": "대치은행나무공원",
    "kakao_lat": 37.5019004512537,
    "kakao_lon": 127.05160523123
  },
  {
    "id": "1790",
    "status": "BAD",
    "district": "중구",
    "label": "보원빌딩 앞 소공원",
    "road": "세종대로5길 18",
    "cur_lat": 37.559175607,
    "cur_lon": 126.973325757,
    "dist_m": 669.3,
    "kakao_name": "의주로소공원",
    "kakao_lat": 37.563918961466,
    "kakao_lon": 126.968651957873
  },
  {
    "id": "1039",
    "status": "BAD",
    "district": "강북구",
    "label": "강북소방서 앞",
    "road": "한천로 911",
    "cur_lat": 37.633079172,
    "cur_lon": 127.038150105,
    "dist_m": 631.4,
    "kakao_name": "강북소방서앞 개방화장실",
    "kakao_lat": 37.6287074803792,
    "kakao_lon": 127.042726324949
  },
  {
    "id": "1883",
    "status": "BAD",
    "district": "서대문구",
    "label": "북아현로18",
    "road": "북아현로18",
    "cur_lat": 37.564034556,
    "cur_lon": 126.954531897,
    "dist_m": 590.3,
    "kakao_name": "궁중흑염소 북아현점",
    "kakao_lat": 37.5590056435381,
    "kakao_lon": 126.956676310953
  },
  {
    "id": "0410",
    "status": "BAD",
    "district": "강남구",
    "label": "한티근린공원",
    "road": "대치동 212-1(삼성로)",
    "cur_lat": 37.496396708,
    "cur_lon": 127.068497229,
    "dist_m": 570.9,
    "kakao_name": "한티근린공원",
    "kakao_lat": 37.4955496064502,
    "kakao_lon": 127.062114177792
  },
  {
    "id": "2864",
    "status": "BAD",
    "district": "구로구",
    "label": "항동 204-2",
    "road": "항동로 8",
    "cur_lat": 37.477445374,
    "cur_lon": 126.821005239,
    "dist_m": 561.4,
    "kakao_name": "항동하버라인2단지아파트 204동",
    "kakao_lat": 37.48229810686456,
    "kakao_lon": 126.82276148476157
  },
  {
    "id": "0722",
    "status": "BAD",
    "district": "도봉구",
    "label": "동아아파트 상가",
    "road": "노해로 384",
    "cur_lat": 37.651977687,
    "cur_lon": 127.050963268,
    "dist_m": 557.9,
    "kakao_name": "동아청솔아파트 상가동",
    "kakao_lat": 37.6568264215897,
    "kakao_lon": 127.049333534238
  },
  {
    "id": "1063",
    "status": "BAD",
    "district": "강남구",
    "label": "신한은행 도산대로지점",
    "road": "도산대로 318",
    "cur_lat": 37.521841885,
    "cur_lon": 127.036895112,
    "dist_m": 537.4,
    "kakao_name": "신한은행 학동금융센터",
    "kakao_lat": 37.52101348077859,
    "kakao_lon": 127.03089230340822
  },
  {
    "id": "2070",
    "status": "BAD",
    "district": "마포구",
    "label": "서강로 97 삼성 프라자",
    "road": "서강로97",
    "cur_lat": 37.551901604,
    "cur_lon": 126.932330871,
    "dist_m": 533.0,
    "kakao_name": "삼성스토어 현대신촌",
    "kakao_lat": 37.555864234332496,
    "kakao_lon": 126.93573189013533
  },
  {
    "id": "0275",
    "status": "BAD",
    "district": "노원구",
    "label": "화랑대역 2번출구 버스정류장",
    "road": "공릉동 90-2",
    "cur_lat": 37.62017152863027,
    "cur_lon": 127.08342602201353,
    "dist_m": 528.8,
    "kakao_name": "신문판매대",
    "kakao_lat": 37.6185624889969,
    "kakao_lon": 127.07777612330335
  },
  {
    "id": "0851",
    "status": "BAD",
    "district": "도봉구",
    "label": "공영주차장 앞",
    "road": "창동 330",
    "cur_lat": 37.652374001135705,
    "cur_lon": 127.04567000046553,
    "dist_m": 507.3,
    "kakao_name": "노원세무서앞 공영주차장",
    "kakao_lat": 37.653008087405496,
    "kakao_lon": 127.05137645655967
  },
  {
    "id": "2743",
    "status": "SUSPECT",
    "district": "양천구",
    "label": "서부트럭터미널 주유소",
    "road": "신정로 167",
    "cur_lat": 37.509357209,
    "cur_lon": 126.842278241,
    "dist_m": 498.6,
    "kakao_name": "이케이에너지 무산주유소",
    "kakao_lat": 37.5105866448829,
    "kakao_lon": 126.84771467808623
  },
  {
    "id": "0514",
    "status": "SUSPECT",
    "district": "동대문구",
    "label": "삼육서울병원 앞 교차로",
    "road": "망우로 79",
    "cur_lat": 37.590213725,
    "cur_lon": 127.061904894,
    "dist_m": 491.9,
    "kakao_name": "중랑교사거리",
    "kakao_lat": 37.5915753190646,
    "kakao_lon": 127.067216692093
  },
  {
    "id": "2214",
    "status": "SUSPECT",
    "district": "은평구",
    "label": "은평교회",
    "road": "응암로 301",
    "cur_lat": 37.598472493,
    "cur_lon": 126.920514932,
    "dist_m": 490.8,
    "kakao_name": "은평교회",
    "kakao_lat": 37.59969902004212,
    "kakao_lon": 126.91516373199191
  },
  {
    "id": "0634",
    "status": "SUSPECT",
    "district": "강남구",
    "label": "미켈란 107",
    "road": "봉은사로 516",
    "cur_lat": 37.513172048,
    "cur_lon": 127.055939666,
    "dist_m": 445.0,
    "kakao_name": "미켈란107아파트",
    "kakao_lat": 37.5146183438448,
    "kakao_lon": 127.06064369097673
  },
  {
    "id": "0002",
    "status": "SUSPECT",
    "district": "강동구",
    "label": "고덕아파트 상가 옆(고덕자이아파트교차로)",
    "road": "상일로 55",
    "cur_lat": 37.553329603,
    "cur_lon": 127.168787696,
    "dist_m": 435.5,
    "kakao_name": "고덕자이아파트교차로",
    "kakao_lat": 37.5510205707765,
    "kakao_lon": 127.172778269567
  },
  {
    "id": "0768",
    "status": "SUSPECT",
    "district": "도봉구",
    "label": "쌍용아파트102동 앞 상가",
    "road": "마들로 555",
    "cur_lat": 37.660347533,
    "cur_lon": 127.048668159,
    "dist_m": 395.9,
    "kakao_name": "동아청솔아파트 상가동",
    "kakao_lat": 37.6568264215897,
    "kakao_lon": 127.049333534238
  },
  {
    "id": "2459",
    "status": "SUSPECT",
    "district": "구로구",
    "label": "가리봉포차",
    "road": "우마길 16-21",
    "cur_lat": 37.481052542,
    "cur_lon": 126.887863103,
    "dist_m": 384.2,
    "kakao_name": "놀이터전통주주점",
    "kakao_lat": 37.484004473978544,
    "kakao_lon": 126.89012634948561
  },
  {
    "id": "0054",
    "status": "SUSPECT",
    "district": "송파구",
    "label": "문정로데오거리",
    "road": "동남로 136",
    "cur_lat": 37.491071967,
    "cur_lon": 127.126046817,
    "dist_m": 307.9,
    "kakao_name": "오아시스마켓 문정점",
    "kakao_lat": 37.4895839843119,
    "kakao_lon": 127.123103548225
  },
  {
    "id": "2285",
    "status": "SUSPECT",
    "district": "은평구",
    "label": "갈현동 무인카페",
    "road": "갈현로 206",
    "cur_lat": 37.61578755,
    "cur_lon": 126.913773751,
    "dist_m": 303.5,
    "kakao_name": "더리터24 구산점",
    "kakao_lat": 37.6136207140192,
    "kakao_lon": 126.915868261755
  },
  {
    "id": "2021",
    "status": "SUSPECT",
    "district": "관악구",
    "label": "대학동 주민센터 앞",
    "road": "신림로 111",
    "cur_lat": 37.470596489,
    "cur_lon": 126.936955662,
    "dist_m": 296.3,
    "kakao_name": "투루카 삼성동 주민센터 앞",
    "kakao_lat": 37.4701001219261,
    "kakao_lon": 126.933657542059
  },
  {
    "id": "0993",
    "status": "SUSPECT",
    "district": "강남구",
    "label": "Tag Heuer",
    "road": "선릉로 828",
    "cur_lat": 37.525856279,
    "cur_lon": 127.040236808,
    "dist_m": 283.5,
    "kakao_name": "태그호이어 갤러리아백화점 WEST점",
    "kakao_lat": 37.5284052205726,
    "kakao_lon": 127.040155245389
  },
  {
    "id": "2699",
    "status": "SUSPECT",
    "district": "강서구",
    "label": "강서구청앞2",
    "road": "화곡로302",
    "cur_lat": 37.55090893,
    "cur_lon": 126.849496775,
    "dist_m": 276.9,
    "kakao_name": "제이투리더스뷰2차오피스텔",
    "kakao_lat": 37.5533180830513,
    "kakao_lon": 126.850291794109
  },
  {
    "id": "2097",
    "status": "SUSPECT",
    "district": "은평구",
    "label": "응암 소공원",
    "road": "은평로(역촌동 43-13)",
    "cur_lat": 37.602215513,
    "cur_lon": 126.929810841,
    "dist_m": 253.2,
    "kakao_name": "은평마루소공원",
    "kakao_lat": 37.6008903037614,
    "kakao_lon": 126.932147566911
  },
  {
    "id": "0205",
    "status": "SUSPECT",
    "district": "송파구",
    "label": "도로변",
    "road": "올림픽로 145",
    "cur_lat": 37.511974038,
    "cur_lon": 127.087039913,
    "dist_m": 252.0,
    "kakao_name": "하나투어 세민월드투어여행사",
    "kakao_lat": 37.5120847037359,
    "kakao_lon": 127.084186166564
  },
  {
    "id": "2699",
    "status": "SUSPECT",
    "district": "강서구",
    "label": "강서구청앞1",
    "road": "화곡로302",
    "cur_lat": 37.55090893,
    "cur_lon": 126.849496775,
    "dist_m": 246.6,
    "kakao_name": "화곡6-1 공영주차장",
    "kakao_lat": 37.5530213584868,
    "kakao_lon": 126.848645770138
  },
  {
    "id": "2452",
    "status": "SUSPECT",
    "district": "구로구",
    "label": "신도림 디큐브시티 앞",
    "road": "경인로 662",
    "cur_lat": 37.508134461,
    "cur_lon": 126.888206228,
    "dist_m": 242.8,
    "kakao_name": "신도림역 1번 출구 앞 대여소",
    "kakao_lat": 37.50972006555395,
    "kakao_lon": 126.89009884675866
  },
  {
    "id": "2405",
    "status": "SUSPECT",
    "district": "금천구",
    "label": "금천구청 앞 보도",
    "road": "시흥대로73길 70",
    "cur_lat": 37.456902661,
    "cur_lon": 126.895367606,
    "dist_m": 211.3,
    "kakao_name": "금천구자전거종합서비스센터",
    "kakao_lat": 37.4568641552093,
    "kakao_lon": 126.89297472810472
  },
  {
    "id": "0057",
    "status": "SUSPECT",
    "district": "송파구",
    "label": "문정로데오거리",
    "road": "동남로 123",
    "cur_lat": 37.490928363,
    "cur_lon": 127.124612178,
    "dist_m": 200.2,
    "kakao_name": "오아시스마켓 문정점",
    "kakao_lat": 37.4895839843119,
    "kakao_lon": 127.123103548225
  }
]